City_ID,City,Country,Lat,Lng,Max Temp,% Humidity,Cloudiness,Wind Speed
0,Toowoomba,AU,-27.55,151.9667,294.15,83,40,4.63
1,Victor Harbor,AU,-35.5667,138.6167,292.59,73,35,2.75
2,Formosa do Rio Preto,BR,-11.0483,-45.1931,298.57,79,100,1.95
3,Kapaa,US,22.0752,-159.319,293.15,83,90,8.75
4,Arman',RU,59.7,150.1667,256.35,78,0,1.44
5,Sikasso,ML,10.9167,-7.0,313.13,20,31,1.59
6,Sumbe,AO,-11.2061,13.8437,301.58,72,88,3.0
7,Shrīgonda,IN,18.6167,74.6833,302.62,26,69,2.05
8,Torbay,CA,47.6666,-52.7314,270.37,86,75,7.72
9,Pochutla,MX,15.7432,-96.4661,298.71,61,1,0.32
10,Albany,US,42.6001,-73.9662,277.04,31,0,3.34
11,Port Blair,IN,11.6667,92.75,300.64,65,40,2.46
12,Ushuaia,AR,-54.8,-68.3,277.15,87,40,9.77
13,San Cristobal,VE,7.7669,-72.225,297.15,94,75,3.09
14,Vaini,TO,-21.2,-175.2,298.15,94,20,1.54
15,Kirundo Province,BI,-2.5833,30.1667,299.15,50,40,2.06
16,Iqaluit,CA,63.7506,-68.5145,249.26,64,40,6.69
17,Hermanus,ZA,-34.4187,19.2345,293.15,71,58,0.45
18,Saskylakh,RU,71.9167,114.0833,240.38,99,100,4.07
19,Valls,ES,41.2861,1.2499,287.15,30,20,1.03
20,Bluff,NZ,-46.6,168.3333,285.37,92,85,1.79
21,Arawa,PG,-6.2132,155.5367,298.47,88,99,1.14
22,Lebu,CL,-37.6167,-73.65,288.95,68,100,4.78
23,Naze,JP,28.3667,129.4833,292.48,92,70,4.89
24,Upernavik,GL,72.7868,-56.1549,258.17,95,92,5.47
25,Saint George,US,37.1041,-113.5841,288.15,30,1,7.2
26,Chapais,CA,49.7834,-74.8492,272.15,59,1,4.63
27,Touros,BR,-5.1989,-35.4608,304.15,48,40,6.69
28,Rikitea,PF,-23.1203,-134.9692,299.44,76,96,4.2
29,Cape Town,ZA,-33.9258,18.4232,294.15,56,20,11.83
30,Punta Arenas,CL,-53.15,-70.9167,282.15,61,40,12.35
31,Costa Rica,BR,-23.4167,-54.65,300.34,67,36,5.17
32,Khatanga,RU,71.9667,102.5,235.51,98,74,3.79
33,Lakatoro,VU,-16.0999,167.4164,298.18,87,100,3.73
34,Cidreira,BR,-30.1811,-50.2056,298.39,71,0,8.32
35,Beringovskiy,RU,63.05,179.3167,254.06,91,100,7.44
36,Aylmer,CA,42.7668,-80.983,278.71,69,1,2.04
37,Russell,US,32.3502,-85.1999,282.59,46,90,6.69
38,Kavieng,PG,-2.5744,150.7967,301.53,76,100,3.86
39,Cabo San Lucas,MX,22.8909,-109.9124,291.48,44,20,1.54
40,Vestmanna,FO,62.1564,-7.1664,279.15,87,75,4.12
41,Aquiraz,BR,-3.9014,-38.3911,304.15,58,40,7.72
42,Campoverde,PE,-8.4753,-74.8058,297.15,100,75,1.54
43,Itarema,BR,-2.9248,-39.9167,303.67,59,5,3.48
44,Mataura,NZ,-46.1927,168.8643,285.37,92,79,1.79
45,Mahibadhoo,MV,3.7833,72.9667,301.51,67,1,3.23
46,Dunedin,NZ,-45.8742,170.5036,287.04,74,13,5.36
47,Hobart,AU,-42.8794,147.3294,289.15,59,90,4.63
48,George Town,MY,5.4112,100.3354,303.15,45,20,3.6
49,Mouzourás,GR,35.5333,24.15,294.15,64,0,2.57
50,Codrington,AU,-38.2667,141.9667,289.82,80,100,3.78
51,Atuona,PF,-9.8,-139.0333,299.65,75,58,4.87
52,Chui,UY,-33.6971,-53.4616,299.16,70,16,5.55
53,Hilo,US,19.7297,-155.09,294.15,78,90,2.06
54,Busselton,AU,-33.65,115.3333,295.93,73,0,3.58
55,Saint-Philippe,RE,-21.3585,55.7679,301.15,69,75,10.29
56,Narsaq,GL,60.9167,-46.05,275.15,75,75,6.69
57,Hasaki,JP,35.7333,140.8333,287.15,88,75,0.51
58,Xining,CN,36.6167,101.7667,270.27,41,100,7.89
59,Santander Jiménez,MX,24.2167,-98.4667,289.54,66,1,1.9
60,Grindavik,IS,63.8424,-22.4338,277.15,81,90,9.26
61,Airai,TL,-8.9266,125.4092,289.61,89,23,0.89
62,Verkhnyaya Inta,RU,65.9811,60.3094,263.09,94,100,0.68
63,Roald,NO,62.5833,6.1333,279.26,100,75,11.32
64,Alofi,NU,-19.0595,-169.9187,296.15,94,100,1.03
65,Sola,VU,-13.8833,167.55,300.64,74,100,5.63
66,Kaeo,NZ,-35.1,173.7833,288.15,85,4,1.34
67,Rodrigues Alves,BR,-7.738,-72.6509,300.24,77,96,0.76
68,Ca Mau,VN,9.1769,105.15,298.68,82,3,1.86
69,Tuatapere,NZ,-46.1333,167.6833,285.37,92,78,1.79
70,Haapiti,PF,-17.5667,-149.8667,298.15,78,40,1.03
71,Kolokani,ML,13.5728,-8.0339,310.59,18,70,2.74
72,Vila Franca do Campo,PT,37.7167,-25.4333,289.15,67,75,7.2
73,Nadvoitsy,RU,63.8667,34.3167,268.75,91,100,5.09
74,Nikolskoye,RU,59.7035,30.7861,270.15,43,75,8.0
75,Mar del Plata,AR,-38.0023,-57.5575,290.93,88,90,2.06
76,Chardara,KZ,41.2547,67.9692,282.24,90,100,4.39
77,Sidvokodvo,SZ,-26.6282,31.4202,307.15,42,20,1.03
78,Wencheng,CN,33.0559,113.7978,283.7,70,100,1.34
79,Port Alfred,ZA,-33.5906,26.891,297.41,77,31,7.71
80,Port Elizabeth,ZA,-33.918,25.5701,294.15,88,90,3.09
81,Puerto Ayora,EC,-0.7393,-90.3518,301.15,78,20,3.09
82,Scarborough,GB,54.2797,-0.4044,288.15,71,97,1.34
83,Ribeira Grande,PT,38.5167,-28.7,289.15,88,75,8.23
84,Carnarvon,AU,-24.8667,113.6333,300.15,83,0,4.12
85,Yellowknife,CA,62.456,-114.3525,258.15,78,20,7.72
86,Água Branca,BR,-5.8922,-42.6361,300.29,81,40,1.23
87,Bambous Virieux,MU,-20.3428,57.7575,300.93,89,75,5.14
88,Lorengau,PG,-2.0226,147.2712,301.39,72,100,1.82
89,Bredasdorp,ZA,-34.5322,20.0403,295.15,56,71,6.17
90,Jamestown,US,42.097,-79.2353,275.15,48,1,0.3
91,Lüderitz,NA,-26.6481,15.1594,297.25,56,0,14.69
92,Tambopata,PE,-12.7333,-69.1833,297.15,88,90,0.51
93,Algiers,DZ,36.7525,3.042,287.15,62,75,3.6
94,Ardabil,IR,38.2498,48.2933,287.15,19,40,8.23
95,Castro,BR,-24.7911,-50.0119,296.85,74,95,3.75
96,Kaitangata,NZ,-46.2817,169.8464,282.8,95,34,3.27
97,Avarua,CK,-21.2078,-159.775,297.15,100,20,1.03
98,Sioux Lookout,CA,50.1001,-91.917,276.15,60,1,4.63
99,Shimoda,JP,34.6667,138.95,289.26,81,99,4.25
100,West Bay,KY,19.3667,-81.4167,301.15,69,20,2.06
101,Jalingo,NG,8.8833,11.3667,309.1,34,95,3.76
102,Hualmay,PE,-11.0964,-77.6139,297.02,63,77,2.6
103,Barrow,US,71.2906,-156.7887,245.15,76,1,2.57
104,Arraial do Cabo,BR,-22.9661,-42.0278,302.15,74,20,5.66
105,Asău,RO,46.4333,26.4,275.37,48,91,0.62
106,Blind River,CA,46.1834,-82.9582,276.15,80,1,1.54
107,Mahébourg,MU,-20.4081,57.7,299.15,89,75,5.14
108,Rantepao,ID,-2.9701,119.8978,293.48,95,100,1.05
109,Molo,KE,-0.2479,35.7374,288.05,81,94,1.56
110,Hambantota,LK,6.1241,81.1185,299.15,100,75,0.51
111,Nantucket,US,41.2835,-70.0995,276.48,70,1,2.57
112,Gemena,CD,3.25,19.7667,299.45,83,98,1.5
113,Mount Gambier,AU,-37.8333,140.7667,292.15,68,100,5.66
114,Luang Prabang,LA,19.8856,102.1347,301.67,52,75,0.61
115,Dongsheng,CN,39.8161,109.9776,268.61,28,0,9.77
116,Nanortalik,GL,60.1432,-45.2371,275.07,98,100,7.03
117,Qaanaaq,GL,77.484,-69.3632,249.99,97,86,2.09
118,Provideniya,RU,64.3833,-173.3,254.75,83,100,7.3
119,Yerbogachën,RU,61.2767,108.0108,251.66,86,100,5.2
120,Belmonte,BR,-15.8631,-38.8828,302.15,65,75,4.12
121,Aklavik,CA,68.2191,-135.0107,241.15,75,20,1.54
122,Kisangani,CD,0.5167,25.2,307.65,40,100,0.85
123,Kiama,AU,-34.6833,150.8667,294.82,83,100,4.02
124,Manbij,SY,36.5281,37.9549,288.15,47,75,1.54
125,Antonina,BR,-25.4286,-48.7119,295.15,73,75,3.09
126,Coquimbo,CL,-29.9533,-71.3436,290.15,63,0,3.6
127,Peto,MX,20.1333,-88.9167,294.17,72,11,1.63
128,Ishigaki,JP,24.3448,124.1572,296.59,81,89,1.58
129,Soma,TR,39.1855,27.6094,283.15,93,75,5.66
130,Churapcha,RU,62.0025,132.4325,263.55,94,94,2.41
131,East London,ZA,-33.0153,27.9116,297.15,78,20,2.06
132,Tiznit Province,MA,29.5833,-9.5,288.3,56,15,8.97
133,Hirara,JP,24.8,125.2833,296.16,78,100,1.37
134,Pevek,RU,69.7008,170.3133,241.86,100,23,0.74
135,Baraguá,CU,21.6967,-78.6328,299.54,57,88,2.69
136,Kuvandyk,RU,51.4781,57.3552,271.07,95,100,6.99
137,Bengkulu,ID,-3.8004,102.2655,299.43,77,100,1.0
138,Lima,PE,-12.0432,-77.0282,296.48,88,0,1.54
139,Yar-Sale,RU,66.8333,70.8333,247.42,88,99,5.69
140,Buala,SB,-8.145,159.5921,299.86,81,100,1.19
141,Port Hardy,CA,50.6996,-127.4199,278.15,93,90,4.63
142,Zyryanka,RU,65.75,150.85,250.24,83,0,3.25
143,Kushiro,JP,42.975,144.3747,271.87,78,100,2.55
144,Coyhaique,CL,-45.5752,-72.0662,288.15,58,40,3.09
145,Sørland,NO,67.667,12.6934,278.15,87,40,12.86
146,Vila,PT,42.0304,-8.1588,287.04,44,0,3.58
147,Leshukonskoye,RU,64.8989,45.7622,265.15,90,95,2.87
148,Houma,US,29.5958,-90.7195,284.82,82,90,4.12
149,Camocim,BR,-2.9022,-40.8411,302.05,68,8,2.19
150,Pavlohrad,UA,48.5167,35.8667,274.15,93,75,2.0
151,Hanzhong,CN,33.0728,107.0303,281.68,70,100,2.33
152,New Norfolk,AU,-42.7826,147.0587,289.15,59,90,4.63
153,Barquisimeto,VE,10.0739,-69.3228,297.15,73,75,1.03
154,Ambilobe,MG,-13.2,49.05,300.84,87,100,1.15
155,Dubti,ET,11.7361,41.0853,310.19,9,0,2.33
156,Hergla,TN,36.0303,10.509,288.15,82,40,4.63
157,Sortland,NO,68.6949,15.4162,274.15,100,90,3.09
158,Lompoc,US,34.6391,-120.4579,280.15,81,1,4.98
159,Lodeynoye Pole,RU,60.726,33.5531,268.11,93,100,6.07
160,Pisco,PE,-13.7,-76.2167,296.15,64,0,3.6
161,Dingli,MT,35.8614,14.3822,290.93,82,40,5.14
162,Brazzaville,CG,-4.2658,15.2832,299.15,78,40,2.06
163,Challans,FR,46.8436,-1.8749,285.15,43,0,5.66
164,Mount Isa,AU,-20.7333,139.5,298.15,94,75,2.06
165,Portland,US,45.5234,-122.6762,280.15,76,75,6.69
166,Vao,NC,-22.6667,167.4833,297.42,73,100,8.01
167,Maromitsa,RU,59.8683,48.0123,266.66,91,100,3.51
168,Ancud,CL,-41.8697,-73.8203,287.15,77,0,3.6
169,Bajil,YE,15.0584,43.2851,304.23,46,51,4.19
170,Tasiilaq,GL,65.6145,-37.6368,269.15,86,90,14.92
171,Vila Velha,BR,-20.3297,-40.2925,302.59,70,40,3.6
172,Butaritari,KI,3.0707,172.7902,300.75,79,0,7.42
173,Genhe,CN,50.7833,121.5167,264.4,92,100,1.64
174,Mirny,RU,62.5353,113.9611,254.49,88,95,7.39
175,Qaryat Sulūq,LY,31.6682,20.2521,300.2,19,16,3.65
176,Vágur,FO,61.4732,-6.8119,279.78,81,0,10.38
177,Mahon,ES,39.8885,4.2658,284.15,58,40,14.92
178,Tabory,RU,58.5198,64.5495,270.78,98,100,1.69
179,Vaitape,PF,-16.5167,-151.75,301.35,64,60,3.42
180,Caravelas,BR,-17.7125,-39.2481,301.21,66,50,2.47
181,Andros Town,BS,24.7,-77.7667,298.15,78,75,3.09
182,Berlevåg,NO,70.8578,29.0864,273.82,83,100,9.4
183,Olafsvik,IS,64.8945,-23.7142,276.21,95,100,10.58
184,Lafayette,US,30.2335,-92.0668,283.15,71,90,3.6
185,Tubinskiy,RU,52.8892,58.2225,272.15,74,90,5.0
186,Bethel,US,41.3712,-73.414,278.15,41,0,1.85
187,Kendari,ID,-3.945,122.4989,298.86,84,2,1.0
188,Nemuro,JP,43.3236,145.575,271.91,73,100,4.35
189,Faya,SA,18.3851,42.4509,300.15,53,20,4.12
190,Cairns,AU,-16.9167,145.7667,297.15,83,93,2.57
191,Buritizeiro,BR,-17.3511,-44.9622,300.1,66,1,2.83
192,Bathsheba,BB,13.2167,-59.5167,302.15,51,20,9.77
193,Bundaberg,AU,-24.85,152.35,299.26,100,40,2.57
194,Altukhovo,RU,52.67,34.36,275.15,60,40,4.0
195,Souillac,MU,-20.5167,57.5167,299.15,89,75,5.14
196,Belyy Yar,RU,53.6039,91.3903,267.15,79,79,2.0
197,Tiksi,RU,71.6872,128.8694,241.49,96,87,1.22
198,Uvarovka,RU,55.5278,35.6061,270.89,75,43,2.87
199,North Bend,US,43.4065,-124.2243,279.15,100,90,1.54
200,Avera,US,33.194,-82.5271,280.15,39,1,8.23
201,Harrai,IN,22.6167,79.2167,300.86,22,28,1.95
202,Athabasca,CA,54.7169,-113.2854,269.15,86,14,0.51
203,Egvekinot,RU,66.3167,-179.1667,249.1,79,100,4.98
204,Sørkjosen,NO,69.8,20.9333,273.4,96,100,1.91
205,Champerico,GT,14.3,-91.9167,297.15,83,0,1.89
206,Forsytheganj,BY,52.6333,29.7333,276.24,49,100,2.56
207,Ciechocinek,PL,52.8791,18.7951,274.26,51,99,0.45
208,Katherine,AU,-14.4667,132.2667,298.15,94,40,2.57
209,Igarka,RU,67.4667,86.5833,242.2,87,0,3.82
210,Caucayá,CO,-0.1934,-74.7819,300.79,68,64,1.79
211,The Valley,AI,18.217,-63.0578,299.15,73,75,7.2
212,Bambanglipuro,ID,-7.95,110.2833,299.27,84,78,2.08
213,Saint Paul Harbor,US,57.79,-152.4072,272.15,93,90,1.54
214,Dale,US,38.1689,-86.99,279.82,65,1,2.57
215,Lagoa,PT,39.05,-27.9833,287.7,81,100,6.91
216,Katsuura,JP,35.1333,140.3,288.71,81,80,8.53
217,Rawson,AR,-43.3002,-65.1023,292.79,40,33,9.69
218,Guerrero Negro,MX,27.9769,-114.0611,287.89,88,0,4.23
219,Zhezkazgan,KZ,47.8043,67.7144,273.96,87,100,6.07
220,Yangi Marg`ilon,UZ,40.4272,71.7189,290.15,34,40,5.14
221,Yulara,AU,-25.2406,130.9889,292.15,94,90,3.25
222,Răsuceni,RO,44.0917,25.6639,283.71,46,82,2.73
223,Khorramabad,IR,33.4878,48.3558,290.15,23,75,6.17
224,Lavrentiya,RU,65.5833,-171.0,251.7,88,98,5.26
225,Kanniyākumāri,IN,8.0833,77.5667,300.92,75,19,2.7
226,Malayal,PH,7.208,121.942,300.4,84,100,1.01
227,Morgan City,US,29.6994,-91.2068,284.15,82,90,5.14
228,Kruisfontein,ZA,-34.0033,24.7314,294.82,80,26,2.68
229,Cayenne,GF,4.9333,-52.3333,302.15,65,75,4.63
230,Clyde River,CA,70.4692,-68.5914,244.15,69,1,3.6
231,Taoudenni,ML,22.6783,-3.9836,304.88,3,0,7.65
232,Faanui,PF,-16.4833,-151.75,301.35,65,55,3.44
233,Cabedelo,BR,-6.9811,-34.8339,304.15,58,40,6.17
234,Hong Kong,HK,22.2855,114.1577,298.15,83,0,1.3
235,Pecos,US,31.4229,-103.4932,276.15,52,1,2.57
236,Cherskiy,RU,68.75,161.3,243.6,88,0,1.98
237,Mujiayingzi,CN,42.1167,118.7833,270.93,43,11,9.41
238,Coahuayana Viejo,MX,18.7333,-103.6833,296.15,49,40,1.08
239,Christchurch,NZ,-43.5333,172.6333,286.15,82,90,0.51
240,Kysyl-Syr,RU,63.8986,122.7617,266.51,91,100,5.68
241,Sassandra,CI,4.95,-6.0833,303.06,62,56,3.27
242,Ninh Binh,VN,20.2539,105.975,296.99,85,95,3.62
243,Stettler,CA,52.3168,-112.7186,271.15,69,0,4.63
244,Port Hedland,AU,-20.3167,118.5667,297.15,60,71,6.17
245,Maués,BR,-3.3836,-57.7186,301.42,68,98,2.39
246,Tubmanburg,LR,6.8708,-10.8172,305.2,54,98,1.78
247,Kem',RU,64.9555,34.5793,270.27,88,93,5.54
248,Manalongon,PH,9.2209,122.886,300.59,80,99,1.74
249,Mortka,RU,59.3322,66.0214,269.96,98,100,1.42
250,Quimper,FR,48.0,-4.1,285.15,54,90,4.63
251,Broken Hill,AU,-31.95,141.4333,297.15,43,100,6.17
252,Vostok,RU,46.4856,135.8833,268.13,95,100,2.05
253,Hamilton,US,39.1834,-84.5333,277.59,60,1,3.6
254,Kulu,TR,39.0951,33.0799,283.66,57,100,3.7
255,Klyuchi,RU,52.2667,79.1667,272.63,72,100,8.03
256,General Roca,AR,-39.0333,-67.5833,292.15,45,0,4.12
257,Husavik,IS,66.0449,-17.3389,278.15,56,75,7.2
258,Acapulco de Juárez,MX,16.8634,-99.8901,298.15,69,1,1.56
259,Moshupa,BW,-24.7782,25.4155,300.15,47,40,1.54
260,Velyka Lepetykha,UA,47.1757,33.9436,278.41,66,89,5.69
261,Longyearbyen,SJ,78.2186,15.6401,265.15,67,40,6.17
262,Ustyuzhna,RU,58.8394,36.4321,267.33,74,100,4.28
263,Nísia Floresta,BR,-6.0911,-35.2086,304.15,48,40,6.69
264,Marakkanam,IN,12.2,79.95,299.93,77,58,5.17
265,Lixouri,GR,38.2019,20.4314,288.15,94,90,4.63
266,Marzuq,YE,14.4,46.4667,302.03,10,56,4.82
267,Chicama,PE,-7.8447,-79.1469,295.15,88,0,4.12
268,Kailua,US,21.4022,-157.7394,295.15,73,40,7.2
269,Ilulissat,GL,69.2167,-51.1,267.15,63,75,3.09
270,Foam Lake,CA,51.65,-103.5343,277.15,65,100,5.66
271,Eureka,US,40.8021,-124.1637,278.71,95,87,0.89
272,Dombarovskiy,RU,50.7587,59.5386,271.79,93,100,8.39
273,Valley City,US,46.9233,-98.0032,277.15,87,1,7.72
274,Samarai,PG,-10.6167,150.6667,301.38,78,44,2.84
275,Fortuna,US,40.5982,-124.1573,278.71,100,90,2.57
276,Henties Bay,NA,-22.116,14.2845,292.04,81,28,4.47
277,Lake Havasu City,US,34.4839,-114.3224,290.93,27,1,1.77
278,Kahului,US,20.8947,-156.47,294.15,88,1,6.65
279,Kieta,PG,-6.2167,155.6333,299.37,84,100,1.49
280,Hofn,IS,64.2539,-15.2082,278.69,38,100,1.89
281,Mihai Bravu,RO,44.1406,26.0628,283.71,64,72,2.91
282,Isangel,VU,-19.55,169.2667,297.8,84,100,4.12
283,Chimbote,PE,-9.0853,-78.5783,296.53,67,30,2.64
284,Kudymkar,RU,59.0173,54.656,269.65,89,100,4.37
285,Chepareria,KE,1.3077,35.2039,299.19,42,92,2.67
286,Flinders,AU,-34.5833,150.8552,294.82,91,100,2.68
287,Nagato,JP,34.3833,131.2,288.15,100,75,0.51
288,Hithadhoo,MV,-0.6,73.0833,301.38,71,100,3.6
289,Appingedam,NL,53.3217,6.8583,279.82,92,99,3.13
290,Kerugoya,KE,-0.4989,37.2803,295.94,63,93,3.88
291,Shenjiamen,CN,29.9576,122.298,282.28,78,19,9.62
292,Ilave,PE,-16.0833,-69.6667,283.03,59,68,0.66
293,Modāsa,IN,23.4667,73.3,303.64,13,0,3.19
294,Meulaboh,ID,4.1363,96.1285,299.58,82,100,0.49
295,Havre-St-Pierre,CA,50.2334,-63.5986,261.15,61,90,3.09
296,Sarkand,KZ,45.41,79.9186,278.91,41,100,2.93
297,Leer,SS,8.3018,30.1418,311.84,22,91,2.59
298,Elko,US,41.0002,-115.5012,274.26,96,100,0.89
299,Esim,GH,4.8699,-2.2405,302.79,65,39,4.05
300,Pontes e Lacerda,BR,-15.2261,-59.3353,297.97,88,96,2.16
301,Bailén,ES,38.0964,-3.7779,287.04,29,0,7.94
302,Puerto Madryn,AR,-42.7692,-65.0385,293.32,36,45,10.9
303,Chokurdakh,RU,70.6333,147.9167,249.59,97,100,1.14
304,Şuhut,TR,38.5311,30.5458,283.6,61,96,5.23
305,Black Diamond,US,47.3087,-122.0032,279.82,80,100,0.45
306,Durban,ZA,-29.8579,31.0292,300.15,74,0,7.2
307,Zhigansk,RU,66.7697,123.3711,263.23,90,100,13.62
308,Pacific Grove,US,36.6177,-121.9166,281.48,87,1,1.54
309,Usinsk,RU,65.9939,57.5281,260.52,94,86,0.83
310,Huarmey,PE,-10.0681,-78.1522,297.18,64,96,2.77
311,Ailigandí,PA,9.2333,-78.0167,299.63,80,37,6.02
312,Werda,BW,-25.2667,23.2833,300.63,36,90,2.57
313,Hollola,FI,61.05,25.4333,273.15,89,100,1.34
314,Pekan,MY,3.4836,103.3996,300.15,78,20,1.54
315,Hearst,CA,49.6835,-83.6665,276.15,44,0,3.09
316,Pacifica,US,37.6138,-122.4869,282.59,87,40,2.06
317,Dikson,RU,73.5069,80.5464,242.66,91,93,8.69
318,Khani,GE,41.9563,42.9566,282.15,81,90,1.03
319,Harlingen,US,26.1906,-97.6961,285.93,76,1,2.57
320,Nova Soure,BR,-11.2333,-38.4833,306.75,35,62,5.97
321,Baruun-Urt,MN,46.6806,113.2792,265.51,45,1,2.5
322,Biak,ID,-0.9131,122.8766,298.76,80,13,0.81
323,Bolu Province,TR,40.6667,31.5833,279.31,82,100,1.12
324,Manado,ID,1.487,124.8455,298.15,94,20,1.03
325,Agirish,RU,61.9247,63.0231,259.27,94,100,4.18
326,Tracy,US,37.7397,-121.4252,281.48,78,0,1.79
327,Óbidos,BR,-1.9175,-55.5181,301.48,69,12,2.59
328,Sisimiut,GL,66.9395,-53.6735,267.6,83,100,2.23
329,Nome,US,64.5011,-165.4064,257.15,60,1,8.23
330,Praia,CV,14.9215,-23.5087,300.15,34,0,7.72
331,Kimbe,PG,-5.5502,150.1429,297.78,92,93,1.67
332,Witu,KE,-2.3889,40.4382,303.15,70,1,5.14
333,São Filipe,CV,14.8961,-24.4956,296.79,63,36,3.77
334,Wajima,JP,37.4,136.9,283.64,93,100,4.11
335,San Juan,AR,-31.5375,-68.5364,294.09,45,1,3.45
336,Klaksvík,FO,62.2266,-6.589,279.15,87,75,4.12
337,Ketchikan,US,55.3422,-131.6461,273.15,80,90,1.92
338,Gubkinskiy,RU,64.434,76.5026,255.61,86,100,10.81
339,Malakal,SS,9.5334,31.6605,312.05,21,91,0.14
340,Vyaz'ma,RU,55.2104,34.2951,271.64,76,65,2.86
341,Tiruchchendur,IN,8.4833,78.1167,300.91,74,98,4.5
342,Alice Springs,AU,-23.7,133.8833,294.15,68,40,3.6
343,Platteville,US,42.7342,-90.4785,275.93,69,1,4.63
344,São João da Barra,BR,-21.6403,-41.0511,303.15,58,40,5.14
345,Mayo,US,38.8876,-76.5119,279.26,48,1,2.57
346,Bara,NG,10.3744,10.7288,310.15,34,100,6.69
347,Amalāpuram,IN,16.5833,82.0167,304.15,51,0,2.57
348,Tāybād,IR,34.74,60.7756,287.09,58,23,9.01
349,Merauke,ID,-8.4667,140.3333,300.0,82,100,3.16
350,Viedma,AR,-40.8135,-62.9967,294.82,36,1,7.22
351,Uchiza,PE,-8.4592,-76.4633,297.78,85,96,0.79
352,Juneau,US,58.3019,-134.4197,270.15,80,90,1.54
353,Udachny,RU,66.4167,112.4,243.76,95,100,14.8
354,Paamiut,GL,61.994,-49.6678,273.19,83,81,3.33
355,Bulgan,MN,48.8125,103.5347,264.76,71,46,2.06
356,Mil'kovo,RU,54.7167,158.6167,262.05,84,78,1.3
357,Esna,EG,25.2934,32.554,308.15,20,0,3.09
358,Businga,CD,3.3333,20.8833,303.47,61,49,0.2
359,San Miguel de Cozumel,MX,20.5083,-86.9458,297.15,78,1,4.63
360,Srednekolymsk,RU,67.45,153.6833,247.91,86,0,0.84
361,Boende,CD,-0.2167,20.8667,301.93,77,72,1.22
362,Takoradze,GH,4.8845,-1.7554,302.61,66,5,3.96
363,Gayéri,BF,12.6497,0.4931,309.63,17,99,1.0
364,College,US,64.8569,-147.8028,252.59,69,1,3.09
365,Danilovka,RU,50.3557,44.1168,272.53,81,78,3.67
366,San Patricio,US,28.017,-97.5169,285.93,82,20,5.14
367,Kattivākkam,IN,13.2167,80.3167,301.15,69,20,2.57
368,Mt. Pleasant,US,32.7941,-79.8626,280.93,61,90,4.12
369,Solnechnyy,RU,50.7214,136.6319,267.39,88,100,1.53
370,Iquitos,PE,-3.7481,-73.2472,301.15,74,40,4.12
371,Astoria,US,46.1879,-123.8313,280.15,87,75,3.09
372,Barguzin,RU,53.6167,109.6167,266.66,93,100,2.82
373,Deputatsky,RU,69.3,139.9,248.3,100,98,1.23
374,Tura,IN,25.5198,90.2201,297.47,29,0,0.24
375,Hohhot,CN,40.8106,111.6522,270.15,54,20,7.0
376,Zambezi,ZM,-13.5432,23.1047,300.46,61,100,1.07
377,Grand Gaube,MU,-20.0064,57.6608,300.93,81,1,1.79
378,Kingseat,GB,56.0974,-3.4084,288.71,62,0,7.2
379,Fereydūnkenār,IR,36.6864,52.5225,290.15,67,0,4.12
380,Northam,GB,51.0333,-4.2167,285.37,82,89,1.79
381,Geraldton,AU,-28.7667,114.6,296.15,78,2,4.12
382,Namatanai,PG,-3.6667,152.4333,300.09,78,67,3.15
383,Altamira,BR,-3.2033,-52.2064,301.15,78,40,2.06
384,Derzhavīnsk,KZ,51.1,66.3167,271.91,94,100,11.87
385,Ugep,NG,5.8086,8.0812,302.67,65,98,1.44
386,Broome,US,42.2506,-75.833,273.15,51,1,2.57
387,San Miguel,SV,13.4833,-88.1833,300.15,94,0,1.03
388,Lar,IN,26.2039,83.9717,300.95,20,0,2.88
389,Xaçmaz,AZ,41.4635,48.806,281.06,80,81,2.6
390,Tuktoyaktuk,CA,69.4541,-133.0374,240.15,75,1,3.6
391,Callaway,US,30.153,-85.5699,286.48,82,90,5.14
392,Muros,ES,42.7762,-9.0603,288.15,38,0,7.1
393,Sitka,US,57.0531,-135.33,272.15,86,1,3.6
394,Chilca,PE,-12.5211,-76.7372,296.48,78,0,2.57
395,Darovskoy,RU,58.77,47.9564,267.63,88,100,3.92
396,Salalah,OM,17.0151,54.0924,301.15,69,0,3.09
397,Malaṅgawā,NP,26.8568,85.5581,300.81,18,0,3.7
398,Thompson,CA,55.7435,-97.8558,275.15,80,40,2.57
399,Itoman,JP,26.1247,127.6694,296.15,88,20,4.63
400,Chitipa,MW,-9.7024,33.2697,296.37,87,69,2.04
401,Severo-Kuril'sk,RU,50.6789,156.125,268.34,80,82,9.62
402,Nuuk,GL,64.1835,-51.7216,275.15,60,75,6.69
403,Port Macquarie,AU,-31.4333,152.9167,296.15,88,75,5.14
404,Nouadhibou,MR,20.931,-17.0347,298.15,31,46,8.23
405,Mweka,CD,-4.85,21.5667,304.91,44,86,0.98
406,Norman Wells,CA,65.282,-126.8329,251.15,77,75,7.2
407,Sakakah,SA,29.9697,40.2064,302.15,12,0,3.6
408,Kärdla,EE,58.9978,22.7492,272.59,91,100,7.6
409,Uyutnoye,UA,45.1994,33.3014,280.93,49,0,5.88
410,Paraúna,BR,-16.9478,-50.4486,298.88,71,62,3.13
411,Assiut,EG,27.181,31.1837,309.15,16,0,5.66
412,Fenoarivo Atsinanana,MG,-17.3667,49.4167,300.38,76,33,2.93
413,Kavaratti,IN,10.5669,72.642,302.07,66,0,5.1
414,Shiyan,CN,32.6475,110.7781,281.99,72,100,2.66
415,Sorong,ID,-0.8833,131.25,301.13,78,100,3.82
416,Pemangkat,ID,1.1667,108.9667,299.59,84,100,3.58
417,Vanino,RU,49.0869,140.2543,269.59,90,100,1.8
418,Cedar City,US,37.6775,-113.0619,282.15,34,1,10.29
419,Uruçuí,BR,-7.2294,-44.5561,299.25,83,94,2.23
420,Santa Cruz de la Sierra,BO,-17.8,-63.1667,301.15,69,75,5.14
421,São Félix do Xingu,BR,-6.6447,-51.995,299.19,74,95,1.62
422,Kangaatsiaq,GL,68.3065,-53.4641,266.86,78,100,1.73
423,Hadishahr,AZ,38.8431,45.6635,288.15,26,75,3.09
424,Lapua,FI,62.9693,23.0088,277.59,91,100,2.68
425,Dubbo,AU,-32.25,148.6167,293.15,88,40,6.17
426,Valdivia,CL,-39.8142,-73.2459,285.15,100,90,1.03
427,Kununurra,AU,-15.7667,128.7333,298.15,100,90,1.47
428,Port Augusta,AU,-32.5,137.7667,294.26,94,100,2.06
429,Lázaro Cárdenas,MX,17.9583,-102.2,297.17,52,0,1.43
430,Aswān,EG,24.0934,32.907,311.73,9,0,4.72
431,Brae,GB,60.3964,-1.353,281.15,93,75,10.8
432,Natal,BR,-5.795,-35.2094,304.15,48,40,6.69
433,Ponta do Sol,PT,32.6667,-17.1,291.15,55,40,6.69
434,Pishin,PK,30.5803,66.9961,292.0,36,100,6.18
435,Mossamedes,AO,-15.1961,12.1522,298.71,69,8,4.88
436,West Plains,US,36.7281,-91.8524,278.15,65,1,2.57
437,Terra Boa,BR,-23.7681,-52.4442,298.52,72,38,4.64
438,Kuruman,ZA,-27.4524,23.4325,289.52,82,100,6.75
439,Camabatela,AO,-8.1881,15.375,297.55,75,81,1.6
440,Greytown,ZA,-29.0642,30.5928,300.29,41,82,2.06
441,Chara,RU,56.9064,118.2631,259.59,64,100,1.24
442,Gamba,GA,-2.65,10.0,302.0,71,69,4.23
443,Caledon,ZA,-34.23,19.4265,293.15,71,89,0.45
444,Denpasar,ID,-8.65,115.2167,301.15,83,20,4.63
445,Jardim,BR,-21.4803,-56.1381,301.28,66,100,4.0
446,Luena,AO,-11.7833,19.9167,302.15,54,75,1.54
447,São José da Coroa Grande,BR,-8.8978,-35.1478,301.34,71,16,4.58
448,Dana Point,US,33.467,-117.6981,285.93,96,17,1.34
449,Taywarah,AF,33.35,64.4167,278.9,73,59,0.59
450,Turaif,SA,31.6725,38.6637,297.15,25,75,5.14
451,Kolpashevo,RU,58.3131,82.9089,271.89,82,100,5.59
452,Ferrol,ES,43.4832,-8.2369,286.48,44,20,6.17
453,Sousse,TN,35.8254,10.637,288.15,100,40,3.6
454,Sangmélima,CM,2.9333,11.9833,296.11,96,100,0.31
455,Salinas,US,36.6777,-121.6555,280.15,87,1,0.39
456,Ina,JP,35.8276,137.9538,284.26,89,100,1.34
457,Magistral'nyy,RU,56.1725,107.4458,269.23,90,100,3.24
458,San Fernando del Valle de Catamarca,AR,-28.4696,-65.7852,288.15,97,36,1.34
459,Puro,PH,12.4841,123.3827,300.19,82,0,5.05
460,Marabu,MY,4.4148,114.0089,300.15,94,40,1.54
461,Havøysund,NO,70.9963,24.6622,273.15,74,90,5.66
462,Yumen,CN,40.2833,97.2,273.48,15,99,5.35
463,Kwang Binh,VN,17.4833,106.6,297.14,96,98,2.23
464,Karpogory,RU,64.0019,44.4451,265.66,87,100,3.21
465,Xaltepec,MX,18.8667,-97.6,283.65,61,0,2.37
466,Peniche,PT,39.3558,-9.3811,290.37,39,0,5.81
467,Leh,IN,34.1667,77.5833,272.2,46,9,0.82
468,Bangassou,CF,4.7413,22.8184,308.26,37,28,0.97
469,Walvis Bay,NA,-22.9575,14.5053,292.04,81,6,4.47
470,Marsh Harbour,BS,26.5412,-77.0636,295.19,84,82,6.77
471,Osakarovka,KZ,50.565,72.5692,273.67,94,100,9.12
472,Moerai,PF,-22.4333,-151.3333,298.79,64,88,2.93
473,Puga,MX,21.5833,-104.8167,280.15,61,1,1.92
474,Virginia Beach,US,36.8529,-75.978,281.48,61,75,8.75
475,Ko Samui,TH,9.5357,99.9357,301.15,78,20,2.57
476,Oktyabr'skoye,RU,43.0645,44.7417,282.15,61,75,6.0
477,Varkala,IN,8.7341,76.7067,303.15,66,40,1.54
478,Mnogovershinnyy,RU,53.9353,139.9242,262.72,76,9,1.65
479,La Santisima Trinidad,BO,-14.8333,-64.9,300.15,83,40,1.17
480,Cabatuan,PH,10.8794,122.486,298.95,72,1,4.04
481,Jumla,NP,29.2747,82.1838,280.52,80,66,0.93
482,Turukhansk,RU,65.8167,87.9833,249.16,80,9,5.53
483,Río Gallegos,AR,-51.6226,-69.2181,283.15,46,20,11.83
484,Nanchang,CN,28.6833,115.8833,284.61,86,100,5.17
485,Tooele,US,40.5308,-112.2983,280.37,81,90,2.06
486,Ritchie,ZA,-29.038,24.6028,293.15,73,75,2.57
487,Kondinskoye,RU,59.6481,67.41,269.69,97,100,1.37
488,Auki,SB,-8.7676,160.7034,298.55,87,71,1.33
489,Esperance,AU,-33.8667,121.9,294.15,64,0,6.17
490,Soyo,AO,-6.1349,12.3689,301.15,74,75,2.06
491,Maţāy,EG,28.419,30.7792,311.01,9,11,5.6
492,Sablé-sur-Sarthe,FR,47.8376,-0.3329,286.48,46,20,6.17
493,Planaltina,BR,-15.4528,-47.6142,299.26,69,75,4.12
494,Palu,ID,-0.8917,119.8707,297.93,93,99,0.57
495,Steinbach am Taunus,DE,50.1667,8.5667,279.15,36,0,3.09
496,Porto Torres,IT,40.835,8.3972,287.15,51,20,9.26
497,Kidal,ML,18.4411,1.4078,310.85,8,0,7.13
498,Creston,US,41.0586,-94.3614,278.71,81,1,5.66
499,Lakhīmpur,IN,27.95,80.7667,300.95,16,0,3.68
500,Barkot,IN,30.8167,78.2,289.96,37,25,0.78
501,Chambersburg,US,39.9376,-77.6611,277.04,40,0,0.45
502,Nueve de Julio,AR,-35.4444,-60.8831,290.93,63,100,1.79
503,San Policarpo,PH,12.1791,125.5072,300.9,80,100,4.17
504,Gorontalo,ID,0.5412,123.0595,297.42,92,11,1.53
505,Pilar,BR,-9.5972,-35.9567,303.15,62,40,5.14
506,Gizo Government Station,SB,-8.103,156.8419,300.34,78,100,0.88
507,Goderich,CA,43.7501,-81.7165,274.15,64,0,2.06
508,Saldanha,ZA,-33.0117,17.9442,296.15,49,0,10.29
509,Phan Thiet,VN,10.9333,108.1,297.78,91,45,1.98
510,Dingle,PH,10.9995,122.6711,298.67,76,0,2.9
511,Kumul,CN,42.8,93.45,277.33,16,0,2.53
512,Moa,CU,20.6569,-74.9403,299.69,68,11,3.07
513,Kitimat,CA,54.0524,-128.6534,271.15,80,40,1.54
514,Boralday,KZ,43.3578,76.8594,285.15,58,75,2.0
515,Chemal,RU,51.4111,86.005,273.26,78,74,3.16
516,Richards Bay,ZA,-28.783,32.0377,301.08,65,43,5.8
517,Leningradskiy,RU,69.3833,178.4167,247.16,86,100,1.17
518,Oussouye,SN,12.485,-16.5469,304.15,45,0,3.09
519,Shatalovo,RU,54.334,32.4465,272.16,82,54,2.55
520,Burns Lake,CA,54.2331,-125.7533,270.15,86,0,3.09
521,Maniitsoq,GL,65.4167,-52.9,271.39,93,100,4.11
522,Madang,PG,-5.2246,145.7966,298.46,85,52,1.09
523,Albury,AU,-36.0833,146.9167,291.15,100,90,3.09
524,Kollam,IN,8.8833,76.6,303.15,66,40,1.54
525,Turtas,RU,58.9417,69.1325,271.71,98,100,1.24
526,Portlethen,GB,57.0547,-2.1307,287.15,51,82,8.75
527,Consolación del Sur,CU,22.5047,-83.5136,295.23,81,100,2.03
528,Andenes,NO,69.3143,16.1194,274.26,93,75,5.14
529,Sertânia,BR,-8.0736,-37.2644,305.81,32,0,4.0
530,Talara,PE,-4.5772,-81.2719,300.15,61,0,8.23
531,Luanda,AO,-8.8368,13.2343,303.15,70,40,4.12
532,Srandakan,ID,-7.9386,110.2506,299.38,84,80,2.08
533,Nabire,ID,-3.3667,135.4833,298.87,87,100,1.31
534,Jining,CN,35.405,116.5814,283.04,53,100,2.94
535,Curvelo,BR,-18.7564,-44.4308,299.93,58,0,3.29
536,Mae Sai,TH,20.4335,99.8762,301.48,69,46,0.84
537,Shingū,JP,33.7333,135.9833,289.45,97,100,3.59
538,Laguna,US,38.421,-121.4238,278.15,87,1,1.54
539,Sistranda,NO,63.7256,8.834,279.15,93,75,13.89
540,Dicabisagan,PH,17.0818,122.4157,298.64,89,71,0.86
541,Crailsheim,DE,49.1344,10.0719,276.48,47,20,3.09
542,Crossville,US,35.949,-85.0269,280.93,52,1,2.57
543,Kupang,ID,-10.1667,123.5833,300.63,80,97,5.85
544,Mitsamiouli,KM,-11.3847,43.2844,302.67,66,41,0.26
545,Znamenskoye,RU,57.1281,73.8282,273.65,97,100,3.93
546,Kushima,JP,31.4583,131.2333,290.15,100,75,4.15
547,Huilong,CN,31.8111,121.655,283.71,72,100,0.45
548,Abu Samrah,SY,35.3029,37.1841,291.53,36,95,2.53
549,Opuwo,NA,-18.0607,13.84,301.7,47,94,1.72
550,Charters Towers,AU,-20.1,146.2667,296.48,81,88,2.26
551,Primorsko,BG,42.2667,27.7667,281.02,70,100,5.0
552,Ostrovnoy,RU,68.0531,39.5131,267.54,89,91,10.21
553,Whitehorse,CA,60.7161,-135.0538,250.37,77,1,3.09
554,Warrington,GB,53.3925,-2.5802,283.71,87,90,5.66
555,Kenai,US,60.5544,-151.2583,263.71,62,90,5.14
556,Izumo,JP,35.3667,132.7667,287.15,94,75,2.57
557,Tual,ID,-5.6667,132.75,302.25,64,99,1.02
558,Bachaquero,VE,9.9694,-71.1494,301.53,60,9,2.38
559,Wenling,CN,28.3669,121.36,288.15,79,97,6.12
560,Illapel,CL,-31.6308,-71.1653,293.47,40,26,1.81
561,Departamento de Maldonado,UY,-34.6667,-54.9167,296.15,83,75,4.63
562,Flin Flon,CA,54.7682,-101.865,274.15,93,20,2.06
563,Powell River,CA,49.8496,-124.5361,279.15,93,75,1.59
564,Barcelos,PT,41.5388,-8.6151,288.15,54,0,5.66
565,Sur,OM,22.5667,59.5289,305.0,32,0,2.94
566,Dukat,RU,62.55,155.55,247.24,57,0,0.94
567,Nadym,RU,65.5333,72.5167,250.98,81,100,7.03
568,Puerto Maldonado,PE,-12.6,-69.1833,297.15,88,90,0.51
569,Zemetchino,RU,53.4973,42.6163,271.35,88,100,2.65
570,Rupert,US,42.6191,-113.6772,276.15,87,90,4.12
571,Bonthe,SL,7.5264,-12.505,304.48,45,77,4.71
572,Basco,PH,20.4487,121.9702,299.52,84,57,6.88
573,La Rioja,ES,42.25,-2.5,282.15,40,0,4.63
574,Port Keats,AU,-14.25,129.55,299.37,79,84,1.76
575,Lokhvytsya,UA,50.3678,33.2602,276.42,70,97,4.0
576,Dongfeng,CN,42.6403,125.5118,274.3,90,100,4.08
577,Neiafu,TO,-18.65,-173.9833,296.15,100,75,2.24
578,Sinnamary,GF,5.3833,-52.95,299.72,78,42,4.0
579,Shitanjing,CN,39.2342,106.3439,270.0,26,0,4.84
580,Jiaocheng,CN,24.6774,116.1389,293.26,80,4,1.8
581,Trairi,BR,-3.2778,-39.2689,303.8,60,2,3.63
582,Half Moon Bay,US,37.4636,-122.4286,282.59,87,75,3.09
